[{"docity":"강원 강릉시","do":"강원","city":"강릉시","longitude":128.8784972222,"latitude":37.7491361111},{"docity":"강원 고성군","do":"강원","city":"고성군","longitude":128.4701638889,"latitude":38.3779611111},{"docity":"강원 동해시","do":"강원","city":"동해시","longitude":129.1166333333,"latitude":37.5219305556},{"docity":"강원 삼척시","do":"강원","city":"삼척시","longitude":129.1674888889,"latitude":37.4470861111},{"docity":"강원 속초시","do":"강원","city":"속초시","longitude":128.5941666667,"latitude":38.204275},{"docity":"강원 양구군","do":"강원","city":"양구군","longitude":127.9922444444,"latitude":38.1072916667},{"docity":"강원 양양군","do":"강원","city":"양양군","longitude":128.6213555556,"latitude":38.0728333333},{"docity":"강원 영월군","do":"강원","city":"영월군","longitude":128.4640194444,"latitude":37.1808611111},{"docity":"강원 원주시","do":"강원","city":"원주시","longitude":127.9220555556,"latitude":37.3390833333},{"docity":"강원 인제군","do":"강원","city":"인제군","longitude":128.1726972222,"latitude":38.0669722222},{"docity":"강원 정선군","do":"강원","city":"정선군","longitude":128.6630861111,"latitude":37.3778083333},{"docity":"강원 철원군","do":"강원","city":"철원군","longitude":127.3157333333,"latitude":38.1440555556},{"docity":"강원 춘천시","do":"강원","city":"춘천시","longitude":127.7323111111,"latitude":37.8785416667},{"docity":"강원 태백시","do":"강원","city":"태백시","longitude":128.9879972222,"latitude":37.1612277778},{"docity":"강원 평창군","do":"강원","city":"평창군","longitude":128.3923527778,"latitude":37.3679166667},{"docity":"강원 홍천군","do":"강원","city":"홍천군","longitude":127.8908416667,"latitude":37.6944222222},{"docity":"강원 화천군","do":"강원","city":"화천군","longitude":127.7103555556,"latitude":38.1034083333},{"docity":"강원 횡성군","do":"강원","city":"횡성군","longitude":127.9872222222,"latitude":37.4889583333},{"docity":"경기 가평군","do":"경기","city":"가평군","longitude":127.5117777778,"latitude":37.8288305556},{"docity":"경기 강화군","do":"경기","city":"강화군","longitude":126.49,"latitude":37.7438583333},{"docity":"경기 고양시","do":"경기","city":"고양시","longitude":126.7770555556,"latitude":37.6559083333},{"docity":"경기 과천시","do":"경기","city":"과천시","longitude":126.9898,"latitude":37.4263722222},{"docity":"경기 광명시","do":"경기","city":"광명시","longitude":126.8667083333,"latitude":37.47575},{"docity":"경기 광주시","do":"경기","city":"광주시","longitude":127.2577861111,"latitude":37.4145055556},{"docity":"경기 구리시","do":"경기","city":"구리시","longitude":127.1318638889,"latitude":37.591625},{"docity":"경기 군포시","do":"경기","city":"군포시","longitude":126.9375,"latitude":37.3586583333},{"docity":"경기 김포시","do":"경기","city":"김포시","longitude":126.7177777778,"latitude":37.6124583333},{"docity":"경기 남양주시","do":"경기","city":"남양주시","longitude":127.2186333333,"latitude":37.6331777778},{"docity":"경기 동두천시","do":"경기","city":"동두천시","longitude":127.0626527778,"latitude":37.9009166667},{"docity":"경기 부천시","do":"경기","city":"부천시","longitude":126.766,"latitude":37.5035917},{"docity":"경기 성남시","do":"경기","city":"성남시","longitude":127.1477194444,"latitude":37.4474916667},{"docity":"경기 수원시","do":"경기","city":"수원시","longitude":127.0122222222,"latitude":37.3010111111},{"docity":"경기 시흥시","do":"경기","city":"시흥시","longitude":126.8050777778,"latitude":37.3773194444},{"docity":"경기 안산시","do":"경기","city":"안산시","longitude":126.8468194444,"latitude":37.2985194444},{"docity":"경기 안성시","do":"경기","city":"안성시","longitude":127.2818444444,"latitude":37.005175},{"docity":"경기 안양시","do":"경기","city":"안양시","longitude":126.9533555556,"latitude":37.3897},{"docity":"경기 양주시","do":"경기","city":"양주시","longitude":127.0478194444,"latitude":37.78245},{"docity":"경기 양평군","do":"경기","city":"양평군","longitude":127.4898861111,"latitude":37.4889361111},{"docity":"경기 여주군","do":"경기","city":"여주군","longitude":127.652958,"latitude":37.324606},{"docity":"경기 여주시","do":"경기","city":"여주시","longitude":127.6396222222,"latitude":37.2953583333},{"docity":"경기 연천군","do":"경기","city":"연천군","longitude":127.0770666667,"latitude":38.0933638889},{"docity":"경기 오산시","do":"경기","city":"오산시","longitude":127.0796416667,"latitude":37.1469138889},{"docity":"경기 옹진군","do":"경기","city":"옹진군","longitude":126.6388888889,"latitude":37.443725},{"docity":"경기 용인시","do":"경기","city":"용인시","longitude":127.2038444444,"latitude":37.2314777778},{"docity":"경기 의왕시","do":"경기","city":"의왕시","longitude":126.9703888889,"latitude":37.34195},{"docity":"경기 의정부시","do":"경기","city":"의정부시","longitude":127.0358416667,"latitude":37.7352888889},{"docity":"경기 이천시","do":"경기","city":"이천시","longitude":127.4432194444,"latitude":37.2754361111},{"docity":"경기 파주시","do":"경기","city":"파주시","longitude":126.7819527778,"latitude":37.7570833333},{"docity":"경기 평택시","do":"경기","city":"평택시","longitude":127.1146555556,"latitude":36.9894388889},{"docity":"경기 포천시","do":"경기","city":"포천시","longitude":127.2024194444,"latitude":37.8921555556},{"docity":"경기 하남시","do":"경기","city":"하남시","longitude":127.217,"latitude":37.5364972222},{"docity":"경기 화성시","do":"경기","city":"화성시","longitude":126.8335305556,"latitude":37.1968166667},{"docity":"경기 인천시청","do":"경기","city":"인천시청","longitude":126.7059185736,"latitude":37.456173008},{"docity":"경상 거제시","do":"경상","city":"거제시","longitude":128.6233555556,"latitude":34.8773583333},{"docity":"경상 거창군","do":"경상","city":"거창군","longitude":127.9116555556,"latitude":35.683625},{"docity":"경상 경산시","do":"경상","city":"경산시","longitude":128.7434638889,"latitude":35.8220888889},{"docity":"경상 경주시","do":"경상","city":"경주시","longitude":129.2270222222,"latitude":35.8531694444},{"docity":"경상 고령군","do":"경상","city":"고령군","longitude":128.2650222222,"latitude":35.7229861111},{"docity":"경상 고성군","do":"경상","city":"고성군","longitude":128.3245416667,"latitude":34.9699},{"docity":"경상 구미시","do":"경상","city":"구미시","longitude":128.3467777778,"latitude":36.11655},{"docity":"경상 군위군","do":"경상","city":"군위군","longitude":128.5750777778,"latitude":36.2399972222},{"docity":"경상 기장군","do":"경상","city":"기장군","longitude":129.224475,"latitude":35.24135},{"docity":"경상 김천시","do":"경상","city":"김천시","longitude":128.1158,"latitude":36.1368972222},{"docity":"경상 김해시","do":"경상","city":"김해시","longitude":128.8916666667,"latitude":35.2255055556},{"docity":"경상 남해군","do":"경상","city":"남해군","longitude":127.8944666667,"latitude":34.8345583333},{"docity":"경상 달성군","do":"경상","city":"달성군","longitude":128.433275,"latitude":35.7716805556},{"docity":"경상 마산시","do":"경상","city":"마산시","longitude":128.567863,"latitude":35.196874},{"docity":"경상 문경시","do":"경상","city":"문경시","longitude":128.1890194444,"latitude":36.5836305556},{"docity":"경상 밀양시","do":"경상","city":"밀양시","longitude":128.7489444444,"latitude":35.5007777778},{"docity":"경상 봉화군","do":"경상","city":"봉화군","longitude":128.734875,"latitude":36.8902611111},{"docity":"경상 사천시","do":"경상","city":"사천시","longitude":128.0667777778,"latitude":35.0002833333},{"docity":"경상 산청군","do":"경상","city":"산청군","longitude":127.8756194444,"latitude":35.4124916667},{"docity":"경상 상주시","do":"경상","city":"상주시","longitude":128.1612638889,"latitude":36.4079694444},{"docity":"경상 성주군","do":"경상","city":"성주군","longitude":128.2851527778,"latitude":35.9162111111},{"docity":"경상 안동시","do":"경상","city":"안동시","longitude":128.7316222222,"latitude":36.5654638889},{"docity":"경상 양산시","do":"경상","city":"양산시","longitude":129.0394111111,"latitude":35.3319277778},{"docity":"경상 영덕군","do":"경상","city":"영덕군","longitude":129.3683555556,"latitude":36.4121027778},{"docity":"경상 영양군","do":"경상","city":"영양군","longitude":129.1146222222,"latitude":36.664275},{"docity":"경상 영주시","do":"경상","city":"영주시","longitude":128.6263444444,"latitude":36.8029361111},{"docity":"경상 영천시","do":"경상","city":"영천시","longitude":128.940775,"latitude":35.9700527778},{"docity":"경상 예천군","do":"경상","city":"예천군","longitude":128.4550222222,"latitude":36.65495},{"docity":"경상 울릉군","do":"경상","city":"울릉군","longitude":130.9037888889,"latitude":37.480575},{"docity":"경상 울주군","do":"경상","city":"울주군","longitude":129.2971638889,"latitude":35.5307388889},{"docity":"경상 울진군","do":"경상","city":"울진군","longitude":129.4027861111,"latitude":36.9901861111},{"docity":"경상 의령군","do":"경상","city":"의령군","longitude":128.2638222222,"latitude":35.3191194444},{"docity":"경상 의성군","do":"경상","city":"의성군","longitude":128.6993638889,"latitude":36.3497583333},{"docity":"경상 진주시","do":"경상","city":"진주시","longitude":128.11,"latitude":35.1770333333},{"docity":"경상 진해시","do":"경상","city":"진해시","longitude":128.710081,"latitude":35.13306},{"docity":"경상 창녕군","do":"경상","city":"창녕군","longitude":128.4945333333,"latitude":35.5415361111},{"docity":"경상 창원시","do":"경상","city":"창원시","longitude":128.6401544,"latitude":35.2540033},{"docity":"경상 청도군","do":"경상","city":"청도군","longitude":128.7362,"latitude":35.6443111111},{"docity":"경상 청송군","do":"경상","city":"청송군","longitude":129.0594,"latitude":36.4332916667},{"docity":"경상 칠곡군","do":"경상","city":"칠곡군","longitude":128.4037972222,"latitude":35.9925472222},{"docity":"경상 통영시","do":"경상","city":"통영시","longitude":128.4352777778,"latitude":34.8512583333},{"docity":"경상 포항시","do":"경상","city":"포항시","longitude":129.3616666667,"latitude":36.0056861111},{"docity":"경상 하동군","do":"경상","city":"하동군","longitude":127.7534305556,"latitude":35.0642027778},{"docity":"경상 함안군","do":"경상","city":"함안군","longitude":128.4087083333,"latitude":35.2694055556},{"docity":"경상 함양군","do":"경상","city":"함양군","longitude":127.7274194444,"latitude":35.5174694444},{"docity":"경상 합천군","do":"경상","city":"합천군","longitude":128.1679305556,"latitude":35.5636166667},{"docity":"경상 부산시","do":"경상","city":"부산시","longitude":129.075,"latitude":35.1798},{"docity":"경상 대구시","do":"경상","city":"대구시","longitude":128.6017,"latitude":35.8715},{"docity":"경상 울산시","do":"경상","city":"울산시","longitude":129.3123,"latitude":35.546},{"docity":"광주시 광산구","do":"광주시","city":"광산구","longitude":126.7936680116,"latitude":35.1399583649},{"docity":"광주시 남구","do":"광주시","city":"남구","longitude":126.9025572423,"latitude":35.133017488},{"docity":"광주시 동구","do":"광주시","city":"동구","longitude":126.9230903116,"latitude":35.1462777552},{"docity":"광주시 북구","do":"광주시","city":"북구","longitude":126.9010805873,"latitude":35.1812137958},{"docity":"광주시 서구","do":"광주시","city":"서구","longitude":126.8895062809,"latitude":35.1525164005},{"docity":"대구시 달서구","do":"대구시","city":"달서구","longitude":128.5350638889,"latitude":35.8269277778},{"docity":"대구시 수성구","do":"대구시","city":"수성구","longitude":128.6328666667,"latitude":35.8552083333},{"docity":"대구시 남구","do":"대구시","city":"남구","longitude":128.5977020404,"latitude":35.8462135079},{"docity":"대구시 달서구","do":"대구시","city":"달서구","longitude":128.5325904539,"latitude":35.8299774381},{"docity":"대구시 달성군","do":"대구시","city":"달성군","longitude":128.4313994999,"latitude":35.7747502893},{"docity":"대구시 동구","do":"대구시","city":"동구","longitude":128.6355584404,"latitude":35.886827279},{"docity":"대구시 북구","do":"대구시","city":"북구","longitude":128.5828923539,"latitude":35.885864597},{"docity":"대구시 서구","do":"대구시","city":"서구","longitude":128.5591600693,"latitude":35.8719405397},{"docity":"대구시 수성구","do":"대구시","city":"수성구","longitude":128.6307010711,"latitude":35.8583514786},{"docity":"대구시 중구","do":"대구시","city":"중구","longitude":128.6061744576,"latitude":35.8695272167},{"docity":"대전시 대덕구","do":"대전시","city":"대덕구","longitude":127.4170933405,"latitude":36.3521838357},{"docity":"대전시 동구","do":"대전시","city":"동구","longitude":127.4548595846,"latitude":36.3120402777},{"docity":"대전시 서구","do":"대전시","city":"서구","longitude":127.3834158115,"latitude":36.3570729894},{"docity":"대전시 유성구","do":"대전시","city":"유성구","longitude":127.3561363016,"latitude":36.3640558639},{"docity":"대전시 중구","do":"대전시","city":"중구","longitude":127.4213809846,"latitude":36.3258298947},{"docity":"부산시 강서구","do":"부산시","city":"강서구","longitude":128.9829083333,"latitude":35.2091638889},{"docity":"부산시 금정구","do":"부산시","city":"금정구","longitude":129.0943194444,"latitude":35.2400777778},{"docity":"부산시 남구","do":"부산시","city":"남구","longitude":129.0865,"latitude":35.1334083333},{"docity":"부산시 동구","do":"부산시","city":"동구","longitude":129.059175,"latitude":35.1358944444},{"docity":"부산시 동래구","do":"부산시","city":"동래구","longitude":129.0858555556,"latitude":35.2018722222},{"docity":"부산시 부산진구","do":"부산시","city":"부산진구","longitude":129.0553194444,"latitude":35.1599527778},{"docity":"부산시 북구","do":"부산시","city":"북구","longitude":128.992475,"latitude":35.1941805556},{"docity":"부산시 사상구","do":"부산시","city":"사상구","longitude":128.9933333333,"latitude":35.1494666667},{"docity":"부산시 사하구","do":"부산시","city":"사하구","longitude":128.9770416667,"latitude":35.1014277778},{"docity":"부산시 서구","do":"부산시","city":"서구","longitude":129.0263777778,"latitude":35.0948361111},{"docity":"부산시 수영구","do":"부산시","city":"수영구","longitude":129.115375,"latitude":35.1424666667},{"docity":"부산시 연제구","do":"부산시","city":"연제구","longitude":129.082075,"latitude":35.1731861111},{"docity":"부산시 영도구","do":"부산시","city":"영도구","longitude":129.0701861111,"latitude":35.0881166667},{"docity":"부산시 중구","do":"부산시","city":"중구","longitude":129.0345083333,"latitude":35.1032166667},{"docity":"부산시 해운대구","do":"부산시","city":"해운대구","longitude":129.1658083333,"latitude":35.1600194444},{"docity":"부산시 기장군","do":"부산시","city":"기장군","longitude":129.222287283,"latitude":35.2447754076},{"docity":"서울 강남구","do":"서울","city":"강남구","longitude":127.0495555556,"latitude":37.514575},{"docity":"서울 강동구","do":"서울","city":"강동구","longitude":127.1258638889,"latitude":37.5273666667},{"docity":"서울 강북구","do":"서울","city":"강북구","longitude":127.0277194444,"latitude":37.6369555556},{"docity":"서울 강서구","do":"서울","city":"강서구","longitude":126.851675,"latitude":37.5481555556},{"docity":"서울 관악구","do":"서울","city":"관악구","longitude":126.9538444444,"latitude":37.4753861111},{"docity":"서울 광진구","do":"서울","city":"광진구","longitude":127.0845333333,"latitude":37.5357388889},{"docity":"서울 구로구","do":"서울","city":"구로구","longitude":126.8895972222,"latitude":37.49265},{"docity":"서울 금천구","do":"서울","city":"금천구","longitude":126.9041972222,"latitude":37.4491083333},{"docity":"서울 노원구","do":"서울","city":"노원구","longitude":127.0583888889,"latitude":37.6514611111},{"docity":"서울 도봉구","do":"서울","city":"도봉구","longitude":127.0495222222,"latitude":37.6658333333},{"docity":"서울 동대문구","do":"서울","city":"동대문구","longitude":127.0421416667,"latitude":37.571625},{"docity":"서울 동작구","do":"서울","city":"동작구","longitude":126.941575,"latitude":37.5096555556},{"docity":"서울 마포구","do":"서울","city":"마포구","longitude":126.9105305556,"latitude":37.5607055556},{"docity":"서울 서대문구","do":"서울","city":"서대문구","longitude":126.9388972222,"latitude":37.5763666667},{"docity":"서울 서초구","do":"서울","city":"서초구","longitude":127.0348111111,"latitude":37.4807861111},{"docity":"서울 성동구","do":"서울","city":"성동구","longitude":127.039,"latitude":37.5606111111},{"docity":"서울 성북구","do":"서울","city":"성북구","longitude":127.0203333333,"latitude":37.5863833333},{"docity":"서울 송파구","do":"서울","city":"송파구","longitude":127.1079305556,"latitude":37.5117555556},{"docity":"서울 양천구","do":"서울","city":"양천구","longitude":126.8687083333,"latitude":37.5142305556},{"docity":"서울 영등포구","do":"서울","city":"영등포구","longitude":126.8983416667,"latitude":37.5236111111},{"docity":"서울 용산구","do":"서울","city":"용산구","longitude":126.9675222222,"latitude":37.5360944444},{"docity":"서울 은평구","do":"서울","city":"은평구","longitude":126.9312416667,"latitude":37.5999694444},{"docity":"서울 종로구","do":"서울","city":"종로구","longitude":126.9816416667,"latitude":37.5703777778},{"docity":"서울 중구","do":"서울","city":"중구","longitude":126.9996416667,"latitude":37.5610027778},{"docity":"서울 중랑구","do":"서울","city":"중랑구","longitude":127.0947777778,"latitude":37.6038055556},{"docity":"울산시 남구","do":"울산시","city":"남구","longitude":129.3301753576,"latitude":35.5440426533},{"docity":"울산시 동구","do":"울산시","city":"동구","longitude":129.4166918827,"latitude":35.5051699632},{"docity":"울산시 북구","do":"울산시","city":"북구","longitude":129.3612449713,"latitude":35.5827078312},{"docity":"울산시 울주군","do":"울산시","city":"울주군","longitude":129.2424748116,"latitude":35.522306479},{"docity":"울산시 중구","do":"울산시","city":"중구","longitude":129.3328162134,"latitude":35.5697122806},{"docity":"인천시 강화군","do":"인천시","city":"강화군","longitude":126.4878417116,"latitude":37.7469290697},{"docity":"인천시 계양구","do":"인천시","city":"계양구","longitude":126.7377439981,"latitude":37.5377072789},{"docity":"인천시 남구","do":"인천시","city":"남구","longitude":126.650297227,"latitude":37.4636916934},{"docity":"인천시 남동구","do":"인천시","city":"남동구","longitude":126.7309668895,"latitude":37.4497106167},{"docity":"인천시 동구","do":"인천시","city":"동구","longitude":126.6432440693,"latitude":37.4740160744},{"docity":"인천시 미추홀구","do":"인천시","city":"미추홀구","longitude":126.650297227,"latitude":37.4636916934},{"docity":"인천시 부평구","do":"인천시","city":"부평구","longitude":126.7219068485,"latitude":37.5078420373},{"docity":"인천시 서구","do":"인천시","city":"서구","longitude":126.6759616116,"latitude":37.545463718},{"docity":"인천시 연수구","do":"인천시","city":"연수구","longitude":126.6782657828,"latitude":37.4103812512},{"docity":"인천시 중구","do":"인천시","city":"중구","longitude":126.6217617,"latitude":37.4738484305},{"docity":"전라 강진군","do":"전라","city":"강진군","longitude":126.7691972222,"latitude":34.6389111111},{"docity":"전라 고창군","do":"전라","city":"고창군","longitude":126.7041083333,"latitude":35.4327388889},{"docity":"전라 고흥군","do":"전라","city":"고흥군","longitude":127.2870555556,"latitude":34.6080694444},{"docity":"전라 곡성군","do":"전라","city":"곡성군","longitude":127.2941083333,"latitude":35.2789555556},{"docity":"전라 광양시","do":"전라","city":"광양시","longitude":127.6981777778,"latitude":34.9375361111},{"docity":"전라 구례군","do":"전라","city":"구례군","longitude":127.4649333333,"latitude":35.1994583333},{"docity":"전라 군산시","do":"전라","city":"군산시","longitude":126.7388444444,"latitude":35.9646416667},{"docity":"전라 김제시","do":"전라","city":"김제시","longitude":126.8827527778,"latitude":35.800575},{"docity":"전라 나주시","do":"전라","city":"나주시","longitude":126.7128666667,"latitude":35.0128388889},{"docity":"전라 남원시","do":"전라","city":"남원시","longitude":127.3925,"latitude":35.4132555556},{"docity":"전라 담양군","do":"전라","city":"담양군","longitude":126.9901638889,"latitude":35.318125},{"docity":"전라 목포시","do":"전라","city":"목포시","longitude":126.3944194444,"latitude":34.8087888889},{"docity":"전라 무안군","do":"전라","city":"무안군","longitude":126.4837,"latitude":34.9873694444},{"docity":"전라 무주군","do":"전라","city":"무주군","longitude":127.6628666667,"latitude":36.0038277778},{"docity":"전라 보성군","do":"전라","city":"보성군","longitude":127.0820888889,"latitude":34.7683333333},{"docity":"전라 부안군","do":"전라","city":"부안군","longitude":126.7356777778,"latitude":35.7285333333},{"docity":"전라 순창군","do":"전라","city":"순창군","longitude":127.1396305556,"latitude":35.3713888889},{"docity":"전라 순천시","do":"전라","city":"순천시","longitude":127.4893305556,"latitude":34.9476055556},{"docity":"전라 신안군","do":"전라","city":"신안군","longitude":126.3817305556,"latitude":34.7898111111},{"docity":"전라 여수시","do":"전라","city":"여수시","longitude":127.6643861111,"latitude":34.7573111111},{"docity":"전라 영광군","do":"전라","city":"영광군","longitude":126.5140861111,"latitude":35.2741666667},{"docity":"전라 영암군","do":"전라","city":"영암군","longitude":126.6986194444,"latitude":34.7969888889},{"docity":"전라 완도군","do":"전라","city":"완도군","longitude":126.7570972222,"latitude":34.3078527778},{"docity":"전라 완주군","do":"전라","city":"완주군","longitude":127.1495972222,"latitude":35.8429694444},{"docity":"전라 익산시","do":"전라","city":"익산시","longitude":126.9598527778,"latitude":35.945275},{"docity":"전라 임실군","do":"전라","city":"임실군","longitude":127.2847527778,"latitude":35.6080638889},{"docity":"전라 장성군","do":"전라","city":"장성군","longitude":126.786975,"latitude":35.2988111111},{"docity":"전라 장수군","do":"전라","city":"장수군","longitude":127.5233,"latitude":35.6442972222},{"docity":"전라 장흥군","do":"전라","city":"장흥군","longitude":126.9091083333,"latitude":34.678525},{"docity":"전라 전주시","do":"전라","city":"전주시","longitude":127.1219194444,"latitude":35.8091888889},{"docity":"전라 정읍시","do":"전라","city":"정읍시","longitude":126.8581111111,"latitude":35.5668722222},{"docity":"전라 진도군","do":"전라","city":"진도군","longitude":126.2655444444,"latitude":34.48375},{"docity":"전라 진안군","do":"전라","city":"진안군","longitude":127.4269666667,"latitude":35.7887194444},{"docity":"전라 함평군","do":"전라","city":"함평군","longitude":126.5186194444,"latitude":35.0627444444},{"docity":"전라 해남군","do":"전라","city":"해남군","longitude":126.6012888889,"latitude":34.5704361111},{"docity":"전라 화순군","do":"전라","city":"화순군","longitude":126.9885666667,"latitude":35.0614805556},{"docity":"전라 광주시","do":"전라","city":"광주시","longitude":127.2551569043,"latitude":37.4294981418},{"docity":"제주 서귀포시","do":"제주","city":"서귀포시","longitude":126.5125555556,"latitude":33.25235},{"docity":"제주 제주시","do":"제주","city":"제주시","longitude":126.5332083333,"latitude":33.4963111111},{"docity":"충청 갈매로","do":"충청","city":"갈매로","longitude":128.6035527778,"latitude":35.8685416667},{"docity":"충청 계룡시","do":"충청","city":"계룡시","longitude":127.2509305556,"latitude":36.2718361111},{"docity":"충청 고운동","do":"충청","city":"고운동","longitude":127.236112,"latitude":36.519901},{"docity":"충청 공주시","do":"충청","city":"공주시","longitude":127.1211194444,"latitude":36.4436138889},{"docity":"충청 괴산군","do":"충청","city":"괴산군","longitude":127.7888305556,"latitude":36.8124305556},{"docity":"충청 국책연구원1로","do":"충청","city":"국책연구원1로","longitude":127.29562,"latitude":36.488994},{"docity":"충청 금남면","do":"충청","city":"금남면","longitude":127.28035,"latitude":36.463826},{"docity":"충청 금산군","do":"충청","city":"금산군","longitude":127.4903083333,"latitude":36.1058694444},{"docity":"충청 나리1로","do":"충청","city":"나리1로","longitude":126.613277,"latitude":36.891878},{"docity":"충청 나리로","do":"충청","city":"나리로","longitude":126.613277,"latitude":36.891878},{"docity":"충청 남세종로","do":"충청","city":"남세종로","longitude":127.289448,"latitude":36.479522},{"docity":"충청 노을3로","do":"충청","city":"노을3로","longitude":127.258565,"latitude":36.47944},{"docity":"충청 논산시","do":"충청","city":"논산시","longitude":127.1009111111,"latitude":36.1842027778},{"docity":"충청 누리로","do":"충청","city":"누리로","longitude":127.252375,"latitude":36.475097},{"docity":"충청 다솜1로","do":"충청","city":"다솜1로","longitude":127.254501,"latitude":36.516156},{"docity":"충청 다정남로","do":"충청","city":"다정남로","longitude":127.241922,"latitude":36.493402},{"docity":"충청 다정동","do":"충청","city":"다정동","longitude":127.234917,"latitude":36.500442},{"docity":"충청 다정북로","do":"충청","city":"다정북로","longitude":127.255849,"latitude":36.49573},{"docity":"충청 다정중앙로","do":"충청","city":"다정중앙로","longitude":127.246898,"latitude":36.496682},{"docity":"충청 단양군","do":"충청","city":"단양군","longitude":128.3678416667,"latitude":36.9817805556},{"docity":"충청 달빛1로","do":"충청","city":"달빛1로","longitude":127.2463,"latitude":36.509374},{"docity":"충청 달빛로","do":"충청","city":"달빛로","longitude":127.25066,"latitude":36.508065},{"docity":"충청 당진군","do":"충청","city":"당진군","longitude":127.684597,"latitude":36.881997},{"docity":"충청 당진시","do":"충청","city":"당진시","longitude":126.6302527778,"latitude":36.89075},{"docity":"충청 대평로","do":"충청","city":"대평로","longitude":127.282581,"latitude":36.469407},{"docity":"충청 도담동","do":"충청","city":"도담동","longitude":127.2623972,"latitude":36.51731111},{"docity":"충청 도움1로","do":"충청","city":"도움1로","longitude":127.247611,"latitude":36.502796},{"docity":"충청 도움3로","do":"충청","city":"도움3로","longitude":127.249982,"latitude":36.504689},{"docity":"충청 마음로","do":"충청","city":"마음로","longitude":127.232222,"latitude":36.518492},{"docity":"충청 마음안1로","do":"충청","city":"마음안1로","longitude":127.236121,"latitude":36.517357},{"docity":"충청 마음안로","do":"충청","city":"마음안로","longitude":127.236121,"latitude":36.517357},{"docity":"충청 만남로","do":"충청","city":"만남로","longitude":127.160304,"latitude":36.822626},{"docity":"충청 보듬2로","do":"충청","city":"보듬2로","longitude":127.265305,"latitude":36.51288},{"docity":"충청 보듬3로","do":"충청","city":"보듬3로","longitude":127.265305,"latitude":36.51288},{"docity":"충청 보듬4로","do":"충청","city":"보듬4로","longitude":127.265305,"latitude":36.51288},{"docity":"충청 보람동","do":"충청","city":"보람동","longitude":127.28094,"latitude":36.478112},{"docity":"충청 보람동로","do":"충청","city":"보람동로","longitude":127.28094,"latitude":36.478112},{"docity":"충청 보람로","do":"충청","city":"보람로","longitude":127.28094,"latitude":36.478112},{"docity":"충청 보령시","do":"충청","city":"보령시","longitude":126.6148861111,"latitude":36.330575},{"docity":"충청 보은군","do":"충청","city":"보은군","longitude":127.7316083333,"latitude":36.4865333333},{"docity":"충청 부강면","do":"충청","city":"부강면","longitude":127.370376,"latitude":36.527112},{"docity":"충청 부여군","do":"충청","city":"부여군","longitude":126.9118638889,"latitude":36.2728222222},{"docity":"충청 새롬남로","do":"충청","city":"새롬남로","longitude":127.254403,"latitude":36.479121},{"docity":"충청 새롬동","do":"충청","city":"새롬동","longitude":127.254403,"latitude":36.479121},{"docity":"충청 새롬북로","do":"충청","city":"새롬북로","longitude":127.254403,"latitude":36.479121},{"docity":"충청 새롬중앙로","do":"충청","city":"새롬중앙로","longitude":127.254403,"latitude":36.479121},{"docity":"충청 서산시","do":"충청","city":"서산시","longitude":126.4521638889,"latitude":36.7820972222},{"docity":"충청 서천군","do":"충청","city":"서천군","longitude":126.6938888889,"latitude":36.0774055556},{"docity":"충청 소담동","do":"충청","city":"소담동","longitude":127.3000509,"latitude":36.488897},{"docity":"충청 소정면","do":"충청","city":"소정면","longitude":127.1582525,"latitude":36.7223175},{"docity":"충청 시청대로","do":"충청","city":"시청대로","longitude":127.296956,"latitude":36.484202},{"docity":"충청 아름동","do":"충청","city":"아름동","longitude":127.2482222222,"latitude":36.5120416667},{"docity":"충청 아산시","do":"충청","city":"아산시","longitude":127.0046416667,"latitude":36.7871055556},{"docity":"충청 연기군","do":"충청","city":"연기군","longitude":127.282781,"latitude":36.474616},{"docity":"충청 연기면","do":"충청","city":"연기면","longitude":127.2737741,"latitude":36.5418737},{"docity":"충청 연동면","do":"충청","city":"연동면","longitude":127.3268658,"latitude":36.5590889},{"docity":"충청 연서면","do":"충청","city":"연서면","longitude":127.2716217,"latitude":36.592587},{"docity":"충청 영동군","do":"충청","city":"영동군","longitude":127.7856111111,"latitude":36.1720583333},{"docity":"충청 예산군","do":"충청","city":"예산군","longitude":126.850875,"latitude":36.6798055556},{"docity":"충청 옥천군","do":"충청","city":"옥천군","longitude":127.5736333333,"latitude":36.30355},{"docity":"충청 음성군","do":"충청","city":"음성군","longitude":127.6926222222,"latitude":36.9374055556},{"docity":"충청 장군면","do":"충청","city":"장군면","longitude":127.2056006,"latitude":36.4967934},{"docity":"충청 전의면","do":"충청","city":"전의면","longitude":127.1955125,"latitude":36.6812513},{"docity":"충청 절재로","do":"충청","city":"절재로","longitude":127.262509,"latitude":36.50843},{"docity":"충청 제천시","do":"충청","city":"제천시","longitude":128.1931527778,"latitude":37.1297694444},{"docity":"충청 조치원읍","do":"충청","city":"조치원읍","longitude":127.298399,"latitude":36.604528},{"docity":"충청 종촌동","do":"충청","city":"종촌동","longitude":127.247612,"latitude":36.5119569},{"docity":"충청 증평군","do":"충청","city":"증평군","longitude":127.5832888889,"latitude":36.7821805556},{"docity":"충청 진천군","do":"충청","city":"진천군","longitude":127.4376444444,"latitude":36.8525388889},{"docity":"충청 천안시","do":"충청","city":"천안시","longitude":127.1524666667,"latitude":36.804125},{"docity":"충청 청양군","do":"충청","city":"청양군","longitude":126.8042555556,"latitude":36.4562694444},{"docity":"충청 청원군","do":"충청","city":"청원군","longitude":127.431119,"latitude":36.549748},{"docity":"충청 청주시","do":"충청","city":"청주시","longitude":127.5117305556,"latitude":36.5839972222},{"docity":"충청 충주시","do":"충청","city":"충주시","longitude":127.9281444444,"latitude":36.9881805556},{"docity":"충청 태안군","do":"충청","city":"태안군","longitude":126.299975,"latitude":36.7426666667},{"docity":"충청 한누리대로","do":"충청","city":"한누리대로","longitude":127.289926,"latitude":36.48545},{"docity":"충청 홍성군","do":"충청","city":"홍성군","longitude":126.6629083333,"latitude":36.5983611111},{"docity":"충청 대전시","do":"충청","city":"대전시","longitude":127.3848616134,"latitude":36.3506295014}]